<?xml version="1.0" encoding="utf-8"?><gpx version="1.1" creator="RV Parky" xmlns="http://www.topografix.com/GPX/1/1" xmlns:xsi="http://www.w3.org/2001/XMLSchema-instance" xsi:schemaLocation="http://www.topografix.com/GPX/1/1 http://www.topografix.com/GPX/1/1/gpx.xsd"><metadata><name>Vancouver Trip</name><desc></desc><link href="https://www.rvparky.com/trip/6442900615462912"><text>RV Parky</text></link><time>2023-06-23T07:38:25.398Z</time></metadata><rte><rtept lat="49.152383" lon="-122.969215"><name>8223 92 St, Delta, BC V4G 0A4, Canada</name><desc></desc><src>RV Parky</src></rtept><rtept lat="49.83095087" lon="-123.1505743"><name>Paradise Valley RV Campground, Squamish, Britisk Columbia, Canada</name><desc>Paradise Valley RV Campground</desc><src>RV Parky</src><link href="//www.rvparky.com/location/paradise-valley-rv-campground"></link></rtept><rtept lat="50.29672" lon="-122.81963"><name>Nairn Falls Provincial Park, Nairn Falls Provincial Park, Whistler, BC V0N 1B4, Canada</name><desc>Nairn Falls Provincial Park</desc><src>RV Parky</src><link href="//www.rvparky.com/location/nairn-falls-provincial-park"></link></rtept><rtept lat="50.6631968614" lon="-121.926022768"><name>Texas Creek Campground, Lillooet, British Columbia</name><desc>Texas Creek Campground</desc><src>RV Parky</src><link href="//www.rvparky.com/location/texas-creek-campground"></link></rtept><rtept lat="50.78727223" lon="-121.0734558"><name>Juniper Beach Provincial Park, Walhachin, BC V0K 2P0, Canada</name><desc>Juniper Beach Provincial Park</desc><src>RV Parky</src><link href="//www.rvparky.com/location/juniper-beach-provincial-park"></link></rtept><rtept lat="50.72839" lon="-120.02969"><name>Pinantan Lake Resort, Kamloops, Britisk Columbia, Canada</name><desc>Pinantan Lake Resort</desc><src>RV Parky</src><link href="//www.rvparky.com/location/pinantan-lake-resort-pinantan-lake-british-columbia"></link></rtept><rtept lat="50.55226" lon="-119.13133"><name>Quilakwa RV Park, Enderby, British Columbia</name><desc>Quilakwa RV Park</desc><src>RV Parky</src><link href="//www.rvparky.com/location/quilakwa-rv-park-enderby-british-columbia"></link></rtept><rtept lat="49.92854129" lon="-119.5119723"><name>Bear Creek Provincial Park, Kelowna, Britisk Columbia, Canada</name><desc>Bear Creek Provincial Park</desc><src>RV Parky</src><link href="//www.rvparky.com/location/bear-creek-provincial-park"></link></rtept><rtept lat="49.33445" lon="-119.72241"><name>Twin Lakes Golf &amp; RV Park, Kaleden, British Columbia</name><desc>Twin Lakes Golf &amp; RV Park</desc><src>RV Parky</src><link href="//www.rvparky.com/location/twin-lakes-golf-and-rv-park"></link></rtept><rtept lat="49.0899" lon="-120.68116"><name>Mule Deer Campground - E. C. Manning, Manning Park, British Columbia</name><desc>Mule Deer Campground - E. C. Manning</desc><src>RV Parky</src><link href="//www.rvparky.com/location/mule-deer-campground-e-c-manning-british-columbia"></link></rtept><rtept lat="49.00481" lon="-122.70249"><name>155 188 St, Surrey, BC V3S 9R9, Canada</name><desc></desc><src>RV Parky</src></rtept><rtept lat="49.152383" lon="-122.969215"><name>8223 92 St, Delta, BC V4G 0A4, Canada</name><desc></desc><src>RV Parky</src></rtept></rte></gpx>